{
"type": "FeatureCollection",
"name": "busan_subway",
"crs": { "type": "name", "properties": { "name": "urn:ogc:def:crs:OGC:1.3:CRS84" } },
"features": [
{ "type": "Feature", "properties": { "STN_ID": "8001", "STN_KOR": "부전역", "LINE_ID": "I26K6", "LINE_NM": "동해선", "STN_EN": "Bujeon", "STN_HAN": "釜 田", "TRSF_TYPE": "일반역", "TRSF_L_ID": null, "TRSF_L_NM": null, "LAT": 35.1646119, "LON": 129.0600897, "OPERATOR": "한국철도공사", "ADDR": "부산광역시 부산진구 부전로 181", "TEL": "1588-7788", "BASE_DT": "2025-04-08" }, "geometry": { "type": "Point", "coordinates": [ 129.0600897, 35.1646119 ] } },
{ "type": "Feature", "properties": { "STN_ID": "8002", "STN_KOR": "거제해맞이역", "LINE_ID": "I26K6", "LINE_NM": "동해선", "STN_EN": "Geojehaemaji", "STN_HAN": "巨堤해맞이", "TRSF_TYPE": "일반역", "TRSF_L_ID": null, "TRSF_L_NM": null, "LAT": 35.1812628, "LON": 129.0690215, "OPERATOR": "한국철도공사", "ADDR": "부산광역시 연제구 거제동 619-1", "TEL": "1588-7788", "BASE_DT": "2025-04-08" }, "geometry": { "type": "Point", "coordinates": [ 129.0690215, 35.1812628 ] } },
{ "type": "Feature", "properties": { "STN_ID": "8003", "STN_KOR": "거제역", "LINE_ID": "I26K6", "LINE_NM": "동해선", "STN_EN": "Geoje", "STN_HAN": "巨 堤", "TRSF_TYPE": "환승역", "TRSF_L_ID": "S2603", "TRSF_L_NM": "부산 도시철도 3호선", "LAT": 35.189646, "LON": 129.0743668, "OPERATOR": "한국철도공사", "ADDR": "부산광역시 연제구 거제동 419-2", "TEL": "1588-7788", "BASE_DT": "2025-04-08" }, "geometry": { "type": "Point", "coordinates": [ 129.0743668, 35.189646 ] } },
{ "type": "Feature", "properties": { "STN_ID": "8004", "STN_KOR": "교대역", "LINE_ID": "I26K6", "LINE_NM": "동해선", "STN_EN": "Busan Nat’l Univ. of Edu", "STN_HAN": "敎 大", "TRSF_TYPE": "환승역", "TRSF_L_ID": "S2601", "TRSF_L_NM": "부산 도시철도 1호선", "LAT": 35.1937433, "LON": 129.0795021, "OPERATOR": "한국철도공사", "ADDR": "부산시 연제구 중앙대로 1196", "TEL": "1588-7788", "BASE_DT": "2025-04-08" }, "geometry": { "type": "Point", "coordinates": [ 129.079502100000013, 35.1937433 ] } },
{ "type": "Feature", "properties": { "STN_ID": "8005", "STN_KOR": "동래역", "LINE_ID": "I26K6", "LINE_NM": "동해선", "STN_EN": "Dongnae", "STN_HAN": "東 萊", "TRSF_TYPE": "일반역", "TRSF_L_ID": null, "TRSF_L_NM": null, "LAT": 35.1972153, "LON": 129.0912865, "OPERATOR": "한국철도공사", "ADDR": "부산광역시 동래구 낙민동 130-4", "TEL": "1588-7788", "BASE_DT": "2025-04-08" }, "geometry": { "type": "Point", "coordinates": [ 129.0912865, 35.1972153 ] } },
{ "type": "Feature", "properties": { "STN_ID": "8006", "STN_KOR": "안락역", "LINE_ID": "I26K6", "LINE_NM": "동해선", "STN_EN": "Allak", "STN_HAN": "安 樂", "TRSF_TYPE": "일반역", "TRSF_L_ID": null, "TRSF_L_NM": null, "LAT": 35.1960238, "LON": 129.1007861, "OPERATOR": "한국철도공사", "ADDR": "부산광역시 동래구 안락동 201-2", "TEL": "1588-7788", "BASE_DT": "2025-04-08" }, "geometry": { "type": "Point", "coordinates": [ 129.1007861, 35.1960238 ] } },
{ "type": "Feature", "properties": { "STN_ID": "8007", "STN_KOR": "재송역", "LINE_ID": "I26K6", "LINE_NM": "동해선", "STN_EN": "Jaesong", "STN_HAN": "裁 松", "TRSF_TYPE": "일반역", "TRSF_L_ID": null, "TRSF_L_NM": null, "LAT": 35.1880827, "LON": 129.1200712, "OPERATOR": "한국철도공사", "ADDR": "부산시 해운대구 해운대로 100", "TEL": "1588-7788", "BASE_DT": "2025-04-08" }, "geometry": { "type": "Point", "coordinates": [ 129.120071200000012, 35.1880827 ] } },
{ "type": "Feature", "properties": { "STN_ID": "8008", "STN_KOR": "센텀역", "LINE_ID": "I26K6", "LINE_NM": "동해선", "STN_EN": "Centum", "STN_HAN": "센텀", "TRSF_TYPE": "일반역", "TRSF_L_ID": null, "TRSF_L_NM": null, "LAT": 35.1794725, "LON": 129.124562, "OPERATOR": "한국철도공사", "ADDR": "부산시 해운대구 해운대로 210", "TEL": "1588-7788", "BASE_DT": "2025-04-08" }, "geometry": { "type": "Point", "coordinates": [ 129.124562, 35.1794725 ] } },
{ "type": "Feature", "properties": { "STN_ID": "8009", "STN_KOR": "벡스코역", "LINE_ID": "I26K6", "LINE_NM": "동해선", "STN_EN": "BEXCO", "STN_HAN": "벡스코", "TRSF_TYPE": "환승역", "TRSF_L_ID": "S2602", "TRSF_L_NM": "부산 도시철도 2호선", "LAT": 35.1715858, "LON": 129.1361067, "OPERATOR": "한국철도공사", "ADDR": "부산광역시 해운대구 우동 1111-2", "TEL": "1588-7788", "BASE_DT": "2025-04-08" }, "geometry": { "type": "Point", "coordinates": [ 129.1361067, 35.1715858 ] } },
{ "type": "Feature", "properties": { "STN_ID": "8010", "STN_KOR": "신해운대역", "LINE_ID": "I26K6", "LINE_NM": "동해선", "STN_EN": "Sinhaeundae", "STN_HAN": "新海雲臺", "TRSF_TYPE": "일반역", "TRSF_L_ID": null, "TRSF_L_NM": null, "LAT": 35.1817128, "LON": 129.1770067, "OPERATOR": "한국철도공사", "ADDR": "부산시 해운대구 장산로 427", "TEL": "1588-7788", "BASE_DT": "2025-04-08" }, "geometry": { "type": "Point", "coordinates": [ 129.1770067, 35.1817128 ] } },
{ "type": "Feature", "properties": { "STN_ID": "8011", "STN_KOR": "송정역", "LINE_ID": "I26K6", "LINE_NM": "동해선", "STN_EN": "Songjeong", "STN_HAN": "松 亭", "TRSF_TYPE": "일반역", "TRSF_L_ID": null, "TRSF_L_NM": null, "LAT": 35.1876948, "LON": 129.2020637, "OPERATOR": "한국철도공사", "ADDR": "부산시 해운대구 해운대로 1147", "TEL": "1588-7788", "BASE_DT": "2025-04-08" }, "geometry": { "type": "Point", "coordinates": [ 129.2020637, 35.1876948 ] } },
{ "type": "Feature", "properties": { "STN_ID": "8012", "STN_KOR": "오시리아역", "LINE_ID": "I26K6", "LINE_NM": "동해선", "STN_EN": "OSIRIA", "STN_HAN": "오시리아", "TRSF_TYPE": "일반역", "TRSF_L_ID": null, "TRSF_L_NM": null, "LAT": 35.1962556, "LON": 129.2082914, "OPERATOR": "한국철도공사", "ADDR": "부산광역시 기장군 기장읍 당사리 261-8", "TEL": "1588-7788", "BASE_DT": "2025-04-08" }, "geometry": { "type": "Point", "coordinates": [ 129.2082914, 35.1962556 ] } },
{ "type": "Feature", "properties": { "STN_ID": "8013", "STN_KOR": "기장역", "LINE_ID": "I26K6", "LINE_NM": "동해선", "STN_EN": "Gijang", "STN_HAN": "機 張", "TRSF_TYPE": "일반역", "TRSF_L_ID": null, "TRSF_L_NM": null, "LAT": 35.2444514, "LON": 129.2188739, "OPERATOR": "한국철도공사", "ADDR": "부산시 기장군 기장읍 차성로288번길 86", "TEL": "1588-7788", "BASE_DT": "2025-04-08" }, "geometry": { "type": "Point", "coordinates": [ 129.2188739, 35.2444514 ] } },
{ "type": "Feature", "properties": { "STN_ID": "8014", "STN_KOR": "일광역", "LINE_ID": "I26K6", "LINE_NM": "동해선", "STN_EN": "Ilgwang", "STN_HAN": "日 光", "TRSF_TYPE": "일반역", "TRSF_L_ID": null, "TRSF_L_NM": null, "LAT": 35.2681585, "LON": 129.2332232, "OPERATOR": "한국철도공사", "ADDR": "부산광역시 기장군 일광면 이천리 750-4", "TEL": "1588-7788", "BASE_DT": "2025-04-08" }, "geometry": { "type": "Point", "coordinates": [ 129.2332232, 35.2681585 ] } },
{ "type": "Feature", "properties": { "STN_ID": "8015", "STN_KOR": "부산원동역", "LINE_ID": "I26K6", "LINE_NM": "동해선", "STN_EN": "Busanwondong", "STN_HAN": "釜山院洞", "TRSF_TYPE": "일반역", "TRSF_L_ID": null, "TRSF_L_NM": null, "LAT": 35.1936164, "LON": 129.1143018, "OPERATOR": "한국철도공사", "ADDR": "부산시 동래구 안락동 52-2", "TEL": "1588-7788", "BASE_DT": "2025-04-08" }, "geometry": { "type": "Point", "coordinates": [ 129.1143018, 35.1936164 ] } },
{ "type": "Feature", "properties": { "STN_ID": "8016", "STN_KOR": "좌천역", "LINE_ID": "I26K6", "LINE_NM": "동해선", "STN_EN": "Jwacheon", "STN_HAN": "佐川", "TRSF_TYPE": "일반역", "TRSF_L_ID": null, "TRSF_L_NM": null, "LAT": 35.3118273, "LON": 129.2452895, "OPERATOR": "한국철도공사", "ADDR": "부산시 기장군 장안읍 좌천리 239-4", "TEL": "1588-7788", "BASE_DT": "2025-04-08" }, "geometry": { "type": "Point", "coordinates": [ 129.245289500000013, 35.3118273 ] } },
{ "type": "Feature", "properties": { "STN_ID": "8017", "STN_KOR": "월내역", "LINE_ID": "I26K6", "LINE_NM": "동해선", "STN_EN": "Wollae", "STN_HAN": "月內", "TRSF_TYPE": "일반역", "TRSF_L_ID": null, "TRSF_L_NM": null, "LAT": 35.3281772, "LON": 129.2768095, "OPERATOR": "한국철도공사", "ADDR": "부산시 기장군 장안읍 월내리 141-4", "TEL": "1588-7788", "BASE_DT": "2025-04-08" }, "geometry": { "type": "Point", "coordinates": [ 129.276809500000013, 35.3281772 ] } },
{ "type": "Feature", "properties": { "STN_ID": "0401", "STN_KOR": "미남", "LINE_ID": "L2604", "LINE_NM": "부산 경량도시철도 4호선", "STN_EN": "Minam", "STN_HAN": "美南", "TRSF_TYPE": "환승역", "TRSF_L_ID": "S2603+L2604", "TRSF_L_NM": "부산 도시철도 3호선+부산 경량도시철도 4호선", "LAT": 35.204807393304101, "LON": 129.077082014486, "OPERATOR": "부산광역시 부산교통공사", "ADDR": "부산광역시 동래구 충렬대로 지하 147", "TEL": "051-678-6401", "BASE_DT": "2022-11-30" }, "geometry": { "type": "Point", "coordinates": [ 129.077082014485995, 35.204807393304101 ] } },
{ "type": "Feature", "properties": { "STN_ID": "0402", "STN_KOR": "동래", "LINE_ID": "L2604", "LINE_NM": "부산 경량도시철도 4호선", "STN_EN": "Dongnae", "STN_HAN": "東萊", "TRSF_TYPE": "환승역", "TRSF_L_ID": "S2601+L2604", "TRSF_L_NM": "부산 도시철도 1호선+부산 경량도시철도 4호선", "LAT": 35.20556, "LON": 129.07861, "OPERATOR": "부산광역시 부산교통공사", "ADDR": "부산광역시 동래구 온천2동 1486번지", "TEL": "051-678-6402", "BASE_DT": "2022-11-30" }, "geometry": { "type": "Point", "coordinates": [ 129.07861, 35.20556 ] } },
{ "type": "Feature", "properties": { "STN_ID": "0403", "STN_KOR": "수안", "LINE_ID": "L2604", "LINE_NM": "부산 경량도시철도 4호선", "STN_EN": "Suan", "STN_HAN": "壽安", "TRSF_TYPE": "일반역", "TRSF_L_ID": null, "TRSF_L_NM": null, "LAT": 35.201836829885302, "LON": 129.08389769778199, "OPERATOR": "부산광역시 부산교통공사", "ADDR": "부산광역시 동래구 충렬대로 지하 223", "TEL": "051-678-6403", "BASE_DT": "2022-11-30" }, "geometry": { "type": "Point", "coordinates": [ 129.083897697781993, 35.201836829885302 ] } },
{ "type": "Feature", "properties": { "STN_ID": "0404", "STN_KOR": "낙민", "LINE_ID": "L2604", "LINE_NM": "부산 경량도시철도 4호선", "STN_EN": "Nangmin", "STN_HAN": "樂民", "TRSF_TYPE": "일반역", "TRSF_L_ID": null, "TRSF_L_NM": null, "LAT": 35.200212313188501, "LON": 129.09077516369501, "OPERATOR": "부산광역시 부산교통공사", "ADDR": "부산광역시 동래구 충렬대로 지하 285", "TEL": "051-678-6404", "BASE_DT": "2022-11-30" }, "geometry": { "type": "Point", "coordinates": [ 129.090775163695014, 35.200212313188501 ] } },
{ "type": "Feature", "properties": { "STN_ID": "0405", "STN_KOR": "충렬사", "LINE_ID": "L2604", "LINE_NM": "부산 경량도시철도 4호선", "STN_EN": "Chungnyeolsa", "STN_HAN": "忠烈祠", "TRSF_TYPE": "일반역", "TRSF_L_ID": null, "TRSF_L_NM": null, "LAT": 35.199692921983598, "LON": 129.097539258279, "OPERATOR": "부산광역시 부산교통공사", "ADDR": "부산광역시 동래구 반송로 지하 205", "TEL": "051-678-6405", "BASE_DT": "2022-11-30" }, "geometry": { "type": "Point", "coordinates": [ 129.097539258278999, 35.199692921983598 ] } },
{ "type": "Feature", "properties": { "STN_ID": "0406", "STN_KOR": "명장", "LINE_ID": "L2604", "LINE_NM": "부산 경량도시철도 4호선", "STN_EN": "Myeongjang", "STN_HAN": "鳴藏", "TRSF_TYPE": "일반역", "TRSF_L_ID": null, "TRSF_L_NM": null, "LAT": 35.205182836076503, "LON": 129.10173514047599, "OPERATOR": "부산광역시 부산교통공사", "ADDR": "부산광역시 동래구 반송로 지하 281", "TEL": "051-678-6406", "BASE_DT": "2022-11-30" }, "geometry": { "type": "Point", "coordinates": [ 129.101735140475995, 35.205182836076503 ] } },
{ "type": "Feature", "properties": { "STN_ID": "0407", "STN_KOR": "서동", "LINE_ID": "L2604", "LINE_NM": "부산 경량도시철도 4호선", "STN_EN": "Seo-dong", "STN_HAN": "書洞", "TRSF_TYPE": "일반역", "TRSF_L_ID": null, "TRSF_L_NM": null, "LAT": 35.21331, "LON": 129.10769, "OPERATOR": "부산광역시 부산교통공사", "ADDR": "부산광역시 금정구 반송로 지하 387", "TEL": "051-678-6407", "BASE_DT": "2022-11-30" }, "geometry": { "type": "Point", "coordinates": [ 129.10769, 35.21331 ] } },
{ "type": "Feature", "properties": { "STN_ID": "0408", "STN_KOR": "금사", "LINE_ID": "L2604", "LINE_NM": "부산 경량도시철도 4호선", "STN_EN": "Geumsa", "STN_HAN": "錦絲", "TRSF_TYPE": "일반역", "TRSF_L_ID": null, "TRSF_L_NM": null, "LAT": 35.21583, "LON": 129.11517, "OPERATOR": "부산광역시 부산교통공사", "ADDR": "부산광역시 금정구 반송로 지하 465", "TEL": "051-678-6408", "BASE_DT": "2022-11-30" }, "geometry": { "type": "Point", "coordinates": [ 129.11517, 35.21583 ] } },
{ "type": "Feature", "properties": { "STN_ID": "0409", "STN_KOR": "반여농산물시장", "LINE_ID": "L2604", "LINE_NM": "부산 경량도시철도 4호선", "STN_EN": "Banyeo Agricultural Market", "STN_HAN": "盤如農産物市場", "TRSF_TYPE": "일반역", "TRSF_L_ID": null, "TRSF_L_NM": null, "LAT": 35.217759325488302, "LON": 129.12401666074999, "OPERATOR": "부산광역시 부산교통공사", "ADDR": "부산광역시 해운대구 반송로 550", "TEL": "051-678-6409", "BASE_DT": "2022-11-30" }, "geometry": { "type": "Point", "coordinates": [ 129.124016660749987, 35.217759325488302 ] } },
{ "type": "Feature", "properties": { "STN_ID": "0410", "STN_KOR": "석대", "LINE_ID": "L2604", "LINE_NM": "부산 경량도시철도 4호선", "STN_EN": "Seokdae", "STN_HAN": "石坮", "TRSF_TYPE": "일반역", "TRSF_L_ID": null, "TRSF_L_NM": null, "LAT": 35.218112780041601, "LON": 129.13682706442401, "OPERATOR": "부산광역시 부산교통공사", "ADDR": "부산광역시 해운대구 석대천로 121", "TEL": "051-678-6410", "BASE_DT": "2022-11-30" }, "geometry": { "type": "Point", "coordinates": [ 129.136827064424011, 35.218112780041601 ] } },
{ "type": "Feature", "properties": { "STN_ID": "0411", "STN_KOR": "영산대", "LINE_ID": "L2604", "LINE_NM": "부산 경량도시철도 4호선", "STN_EN": "Youngsan Univ.", "STN_HAN": "靈山大", "TRSF_TYPE": "일반역", "TRSF_L_ID": null, "TRSF_L_NM": null, "LAT": 35.2256086484524, "LON": 129.146159216603, "OPERATOR": "부산광역시 부산교통공사", "ADDR": "부산광역시 해운대구 반송로 803", "TEL": "051-678-6411", "BASE_DT": "2022-11-30" }, "geometry": { "type": "Point", "coordinates": [ 129.146159216602996, 35.2256086484524 ] } },
{ "type": "Feature", "properties": { "STN_ID": "0412", "STN_KOR": "윗반송", "LINE_ID": "L2604", "LINE_NM": "부산 경량도시철도 4호선", "STN_EN": "Witbansong", "STN_HAN": "上盤松", "TRSF_TYPE": "일반역", "TRSF_L_ID": null, "TRSF_L_NM": null, "LAT": 35.232423912601398, "LON": 129.15380800677599, "OPERATOR": "부산광역시 부산교통공사", "ADDR": "부산광역시 해운대구 반송로 917", "TEL": "051-678-6412", "BASE_DT": "2022-11-30" }, "geometry": { "type": "Point", "coordinates": [ 129.153808006775989, 35.232423912601398 ] } },
{ "type": "Feature", "properties": { "STN_ID": "0413", "STN_KOR": "고촌", "LINE_ID": "L2604", "LINE_NM": "부산 경량도시철도 4호선", "STN_EN": "Gochon", "STN_HAN": "古村", "TRSF_TYPE": "일반역", "TRSF_L_ID": null, "TRSF_L_NM": null, "LAT": 35.235970939273599, "LON": 129.16044490865301, "OPERATOR": "부산광역시 부산교통공사", "ADDR": "부산광역시 기장군 철마면 반송로 991", "TEL": "051-678-6413", "BASE_DT": "2022-11-30" }, "geometry": { "type": "Point", "coordinates": [ 129.160444908653005, 35.235970939273599 ] } },
{ "type": "Feature", "properties": { "STN_ID": "0414", "STN_KOR": "안평", "LINE_ID": "L2604", "LINE_NM": "부산 경량도시철도 4호선", "STN_EN": "Anpyeong", "STN_HAN": "安平", "TRSF_TYPE": "일반역", "TRSF_L_ID": null, "TRSF_L_NM": null, "LAT": 35.23733, "LON": 129.17183, "OPERATOR": "부산광역시 부산교통공사", "ADDR": "부산광역시 기장군 철마면 반송로 1001", "TEL": "051-678-6414", "BASE_DT": "2022-11-30" }, "geometry": { "type": "Point", "coordinates": [ 129.17183, 35.23733 ] } },
{ "type": "Feature", "properties": { "STN_ID": "0095", "STN_KOR": "다대포해수욕장", "LINE_ID": "S2601", "LINE_NM": "부산 도시철도 1호선", "STN_EN": "Dadaepo Beach", "STN_HAN": "多大浦海水浴場", "TRSF_TYPE": "일반역", "TRSF_L_ID": null, "TRSF_L_NM": null, "LAT": 35.048194089655198, "LON": 128.96582428574601, "OPERATOR": "부산광역시 부산교통공사", "ADDR": "부산광역시 사하구 다대로 지하 692", "TEL": "051-678-6195", "BASE_DT": "2022-11-30" }, "geometry": { "type": "Point", "coordinates": [ 128.96582428574601, 35.048194089655198 ] } },
{ "type": "Feature", "properties": { "STN_ID": "0096", "STN_KOR": "다대포항", "LINE_ID": "S2601", "LINE_NM": "부산 도시철도 1호선", "STN_EN": "Dadaepo Harbor", "STN_HAN": "多大浦港", "TRSF_TYPE": "일반역", "TRSF_L_ID": null, "TRSF_L_NM": null, "LAT": 35.057711792918496, "LON": 128.97128007235699, "OPERATOR": "부산광역시 부산교통공사", "ADDR": "부산광역시 사하구 다대로 지하 548", "TEL": "051-678-6196", "BASE_DT": "2022-11-30" }, "geometry": { "type": "Point", "coordinates": [ 128.97128007235699, 35.057711792918496 ] } },
{ "type": "Feature", "properties": { "STN_ID": "0097", "STN_KOR": "낫개", "LINE_ID": "S2601", "LINE_NM": "부산 도시철도 1호선", "STN_EN": "Natgae", "STN_HAN": "羅浦", "TRSF_TYPE": "일반역", "TRSF_L_ID": null, "TRSF_L_NM": null, "LAT": 35.065224716817298, "LON": 128.97965678787401, "OPERATOR": "부산광역시 부산교통공사", "ADDR": "부산광역시 사하구 다대로 지하422", "TEL": "051-678-6197", "BASE_DT": "2022-11-30" }, "geometry": { "type": "Point", "coordinates": [ 128.979656787874006, 35.065224716817298 ] } },
{ "type": "Feature", "properties": { "STN_ID": "0098", "STN_KOR": "신장림", "LINE_ID": "S2601", "LINE_NM": "부산 도시철도 1호선", "STN_EN": "Sinjangnim", "STN_HAN": "新長林", "TRSF_TYPE": "일반역", "TRSF_L_ID": null, "TRSF_L_NM": null, "LAT": 35.074772801147901, "LON": 128.976625251575, "OPERATOR": "부산광역시 부산교통공사", "ADDR": "부산광역시 사하구 다대로 지하310", "TEL": "051-678-6198", "BASE_DT": "2022-11-30" }, "geometry": { "type": "Point", "coordinates": [ 128.976625251575001, 35.074772801147901 ] } },
{ "type": "Feature", "properties": { "STN_ID": "0099", "STN_KOR": "장림", "LINE_ID": "S2601", "LINE_NM": "부산 도시철도 1호선", "STN_EN": "Jangnim", "STN_HAN": "長林", "TRSF_TYPE": "일반역", "TRSF_L_ID": null, "TRSF_L_NM": null, "LAT": 35.082012630712804, "LON": 128.97740169889701, "OPERATOR": "부산광역시 부산교통공사", "ADDR": "부산광역시 사하구 다대로 지하230", "TEL": "051-678-6199", "BASE_DT": "2022-11-30" }, "geometry": { "type": "Point", "coordinates": [ 128.977401698897012, 35.082012630712804 ] } },
{ "type": "Feature", "properties": { "STN_ID": "0100", "STN_KOR": "동매", "LINE_ID": "S2601", "LINE_NM": "부산 도시철도 1호선", "STN_EN": "Dongmae", "STN_HAN": "東山", "TRSF_TYPE": "일반역", "TRSF_L_ID": null, "TRSF_L_NM": null, "LAT": 35.089761230184898, "LON": 128.97344721450099, "OPERATOR": "부산광역시 부산교통공사", "ADDR": "부산광역시 사하구 신산로 지하168", "TEL": "051-678-6100", "BASE_DT": "2022-11-30" }, "geometry": { "type": "Point", "coordinates": [ 128.973447214500993, 35.089761230184898 ] } },
{ "type": "Feature", "properties": { "STN_ID": "0101", "STN_KOR": "신평", "LINE_ID": "S2601", "LINE_NM": "부산 도시철도 1호선", "STN_EN": "Sinpyeong", "STN_HAN": "新平", "TRSF_TYPE": "일반역", "TRSF_L_ID": null, "TRSF_L_NM": null, "LAT": 35.092159322711296, "LON": 128.96058957654699, "OPERATOR": "부산광역시 부산교통공사", "ADDR": "부산광역시 사하구 하신번영로 140", "TEL": "051-678-6101", "BASE_DT": "2022-11-30" }, "geometry": { "type": "Point", "coordinates": [ 128.960589576546994, 35.092159322711296 ] } },
{ "type": "Feature", "properties": { "STN_ID": "0102", "STN_KOR": "하단", "LINE_ID": "S2601", "LINE_NM": "부산 도시철도 1호선", "STN_EN": "Hadan", "STN_HAN": "下端", "TRSF_TYPE": "일반역", "TRSF_L_ID": null, "TRSF_L_NM": null, "LAT": 35.106180964705302, "LON": 128.96623783417999, "OPERATOR": "부산광역시 부산교통공사", "ADDR": "부산광역시 사하구 낙동남로 지하 1415", "TEL": "051-678-6102", "BASE_DT": "2022-11-30" }, "geometry": { "type": "Point", "coordinates": [ 128.966237834179992, 35.106180964705302 ] } },
{ "type": "Feature", "properties": { "STN_ID": "0103", "STN_KOR": "당리", "LINE_ID": "S2601", "LINE_NM": "부산 도시철도 1호선", "STN_EN": "Dangni", "STN_HAN": "堂里", "TRSF_TYPE": "일반역", "TRSF_L_ID": null, "TRSF_L_NM": null, "LAT": 35.103490469215998, "LON": 128.97384968251899, "OPERATOR": "부산광역시 부산교통공사", "ADDR": "부산광역시 사하구 낙동대로 지하 405", "TEL": "051-678-6103", "BASE_DT": "2022-11-30" }, "geometry": { "type": "Point", "coordinates": [ 128.973849682518988, 35.103490469215998 ] } },
{ "type": "Feature", "properties": { "STN_ID": "0104", "STN_KOR": "사하", "LINE_ID": "S2601", "LINE_NM": "부산 도시철도 1호선", "STN_EN": "Saha", "STN_HAN": "沙下", "TRSF_TYPE": "일반역", "TRSF_L_ID": null, "TRSF_L_NM": null, "LAT": 35.099810965388002, "LON": 128.98307761802201, "OPERATOR": "부산광역시 부산교통공사", "ADDR": "부산광역시 사하구 낙동대로 지하 309", "TEL": "051-678-6104", "BASE_DT": "2022-11-30" }, "geometry": { "type": "Point", "coordinates": [ 128.983077618022008, 35.099810965388002 ] } },
{ "type": "Feature", "properties": { "STN_ID": "0105", "STN_KOR": "괴정", "LINE_ID": "S2601", "LINE_NM": "부산 도시철도 1호선", "STN_EN": "Goejeong", "STN_HAN": "槐亭", "TRSF_TYPE": "일반역", "TRSF_L_ID": null, "TRSF_L_NM": null, "LAT": 35.099898869644697, "LON": 128.99250386301699, "OPERATOR": "부산광역시 부산교통공사", "ADDR": "부산광역시 사하구 낙동대로 지하 221", "TEL": "051-678-6105", "BASE_DT": "2022-11-30" }, "geometry": { "type": "Point", "coordinates": [ 128.992503863016992, 35.099898869644697 ] } },
{ "type": "Feature", "properties": { "STN_ID": "0106", "STN_KOR": "대티", "LINE_ID": "S2601", "LINE_NM": "부산 도시철도 1호선", "STN_EN": "Daeti", "STN_HAN": "大峙", "TRSF_TYPE": "일반역", "TRSF_L_ID": null, "TRSF_L_NM": null, "LAT": 35.103080230273399, "LON": 128.99991678283399, "OPERATOR": "부산광역시 부산교통공사", "ADDR": "부산광역시 사하구 낙동대로 지하 141", "TEL": "051-678-6106", "BASE_DT": "2022-11-30" }, "geometry": { "type": "Point", "coordinates": [ 128.999916782833992, 35.103080230273399 ] } },
{ "type": "Feature", "properties": { "STN_ID": "0107", "STN_KOR": "서대신", "LINE_ID": "S2601", "LINE_NM": "부산 도시철도 1호선", "STN_EN": "Seodaesin", "STN_HAN": "西大新", "TRSF_TYPE": "일반역", "TRSF_L_ID": null, "TRSF_L_NM": null, "LAT": 35.110902847587802, "LON": 129.01217522275701, "OPERATOR": "부산광역시 부산교통공사", "ADDR": "부산광역시 서구 대영로 지하 1", "TEL": "051-678-6107", "BASE_DT": "2022-11-30" }, "geometry": { "type": "Point", "coordinates": [ 129.012175222757008, 35.110902847587802 ] } },
{ "type": "Feature", "properties": { "STN_ID": "0108", "STN_KOR": "동대신", "LINE_ID": "S2601", "LINE_NM": "부산 도시철도 1호선", "STN_EN": "Dongdaesin", "STN_HAN": "東大新", "TRSF_TYPE": "일반역", "TRSF_L_ID": null, "TRSF_L_NM": null, "LAT": 35.110487787744603, "LON": 129.01762076609199, "OPERATOR": "부산광역시 부산교통공사", "ADDR": "부산광역시 서구 구덕로 지하 290", "TEL": "051-678-6108", "BASE_DT": "2022-11-30" }, "geometry": { "type": "Point", "coordinates": [ 129.017620766091994, 35.110487787744603 ] } },
{ "type": "Feature", "properties": { "STN_ID": "0109", "STN_KOR": "토성", "LINE_ID": "S2601", "LINE_NM": "부산 도시철도 1호선", "STN_EN": "Toseong", "STN_HAN": "土城", "TRSF_TYPE": "일반역", "TRSF_L_ID": null, "TRSF_L_NM": null, "LAT": 35.100707022277298, "LON": 129.01978613175001, "OPERATOR": "부산광역시 부산교통공사", "ADDR": "부산광역시 서구 구덕로 지하 170", "TEL": "051-678-6109", "BASE_DT": "2022-11-30" }, "geometry": { "type": "Point", "coordinates": [ 129.01978613175001, 35.100707022277298 ] } },
{ "type": "Feature", "properties": { "STN_ID": "0110", "STN_KOR": "자갈치", "LINE_ID": "S2601", "LINE_NM": "부산 도시철도 1호선", "STN_EN": "Jagalchi", "STN_HAN": "札其", "TRSF_TYPE": "일반역", "TRSF_L_ID": null, "TRSF_L_NM": null, "LAT": 35.097377102919097, "LON": 129.02659229172701, "OPERATOR": "부산광역시 부산교통공사", "ADDR": "부산광역시 중구 구덕로 지하 80", "TEL": "051-678-6110", "BASE_DT": "2022-11-30" }, "geometry": { "type": "Point", "coordinates": [ 129.026592291727013, 35.097377102919097 ] } },
{ "type": "Feature", "properties": { "STN_ID": "0111", "STN_KOR": "남포", "LINE_ID": "S2601", "LINE_NM": "부산 도시철도 1호선", "STN_EN": "Nampo", "STN_HAN": "南浦", "TRSF_TYPE": "일반역", "TRSF_L_ID": null, "TRSF_L_NM": null, "LAT": 35.097872305431999, "LON": 129.034595436377, "OPERATOR": "부산광역시 부산교통공사", "ADDR": "부산광역시 중구 구덕로 지하 12", "TEL": "051-678-6111", "BASE_DT": "2022-11-30" }, "geometry": { "type": "Point", "coordinates": [ 129.034595436377003, 35.097872305431999 ] } },
{ "type": "Feature", "properties": { "STN_ID": "0112", "STN_KOR": "중앙", "LINE_ID": "S2601", "LINE_NM": "부산 도시철도 1호선", "STN_EN": "Jungang", "STN_HAN": "中央", "TRSF_TYPE": "일반역", "TRSF_L_ID": null, "TRSF_L_NM": null, "LAT": 35.103757668248903, "LON": 129.03635688613801, "OPERATOR": "부산광역시 부산교통공사", "ADDR": "부산광역시 중구 중앙대로 지하 83", "TEL": "051-678-6112", "BASE_DT": "2022-11-30" }, "geometry": { "type": "Point", "coordinates": [ 129.036356886138009, 35.103757668248903 ] } },
{ "type": "Feature", "properties": { "STN_ID": "0113", "STN_KOR": "부산역", "LINE_ID": "S2601", "LINE_NM": "부산 도시철도 1호선", "STN_EN": "Busan Station", "STN_HAN": "釜山驛", "TRSF_TYPE": "일반역", "TRSF_L_ID": null, "TRSF_L_NM": null, "LAT": 35.114439231535798, "LON": 129.039279645964, "OPERATOR": "부산광역시 부산교통공사", "ADDR": "부산광역시 동구 중앙대로 지하 200", "TEL": "051-678-6113", "BASE_DT": "2022-11-30" }, "geometry": { "type": "Point", "coordinates": [ 129.039279645964001, 35.114439231535798 ] } },
{ "type": "Feature", "properties": { "STN_ID": "0114", "STN_KOR": "초량", "LINE_ID": "S2601", "LINE_NM": "부산 도시철도 1호선", "STN_EN": "Choryang", "STN_HAN": "草梁", "TRSF_TYPE": "일반역", "TRSF_L_ID": null, "TRSF_L_NM": null, "LAT": 35.121168027391398, "LON": 129.04299087628399, "OPERATOR": "부산광역시 부산교통공사", "ADDR": "부산광역시 동구 중앙대로 지하 264", "TEL": "051-678-6114", "BASE_DT": "2022-11-30" }, "geometry": { "type": "Point", "coordinates": [ 129.042990876283994, 35.121168027391398 ] } },
{ "type": "Feature", "properties": { "STN_ID": "0115", "STN_KOR": "부산진", "LINE_ID": "S2601", "LINE_NM": "부산 도시철도 1호선", "STN_EN": "Busanjin", "STN_HAN": "釜山鎭", "TRSF_TYPE": "일반역", "TRSF_L_ID": null, "TRSF_L_NM": null, "LAT": 35.127760856356097, "LON": 129.04787708353899, "OPERATOR": "부산광역시 부산교통공사", "ADDR": "부산광역시 동구 중앙대로 지하 350", "TEL": "051-678-6115", "BASE_DT": "2022-11-30" }, "geometry": { "type": "Point", "coordinates": [ 129.047877083538992, 35.127760856356097 ] } },
{ "type": "Feature", "properties": { "STN_ID": "0116", "STN_KOR": "좌천", "LINE_ID": "S2601", "LINE_NM": "부산 도시철도 1호선", "STN_EN": "Jwacheon", "STN_HAN": "佐川", "TRSF_TYPE": "일반역", "TRSF_L_ID": null, "TRSF_L_NM": null, "LAT": 35.134302470265901, "LON": 129.05430978850899, "OPERATOR": "부산광역시 부산교통공사", "ADDR": "부산광역시 동구 중앙대로 지하 446", "TEL": "051-678-6116", "BASE_DT": "2022-11-30" }, "geometry": { "type": "Point", "coordinates": [ 129.054309788508988, 35.134302470265901 ] } },
{ "type": "Feature", "properties": { "STN_ID": "0117", "STN_KOR": "범일", "LINE_ID": "S2601", "LINE_NM": "부산 도시철도 1호선", "STN_EN": "Beomil", "STN_HAN": "凡一", "TRSF_TYPE": "일반역", "TRSF_L_ID": null, "TRSF_L_NM": null, "LAT": 35.140722783932901, "LON": 129.05934347138799, "OPERATOR": "부산광역시 부산교통공사", "ADDR": "부산광역시 동구 범일로 지하 108", "TEL": "051-678-6117", "BASE_DT": "2022-11-30" }, "geometry": { "type": "Point", "coordinates": [ 129.05934347138799, 35.140722783932901 ] } },
{ "type": "Feature", "properties": { "STN_ID": "0118", "STN_KOR": "범내골", "LINE_ID": "S2601", "LINE_NM": "부산 도시철도 1호선", "STN_EN": "Beomnaegol", "STN_HAN": "凡內谷", "TRSF_TYPE": "일반역", "TRSF_L_ID": null, "TRSF_L_NM": null, "LAT": 35.147355999316297, "LON": 129.05923645056501, "OPERATOR": "부산광역시 부산교통공사", "ADDR": "부산광역시 부산진구 중앙대로 지하 612", "TEL": "051-678-6118", "BASE_DT": "2022-11-30" }, "geometry": { "type": "Point", "coordinates": [ 129.05923645056501, 35.147355999316297 ] } },
{ "type": "Feature", "properties": { "STN_ID": "0119", "STN_KOR": "서면", "LINE_ID": "S2601", "LINE_NM": "부산 도시철도 1호선", "STN_EN": "Seomyeon", "STN_HAN": "西面", "TRSF_TYPE": "환승역", "TRSF_L_ID": "S2601+S2602", "TRSF_L_NM": "부산 도시철도 1호선+부산 도시철도 2호선", "LAT": 35.157764059003, "LON": 129.05903575237099, "OPERATOR": "부산광역시 부산교통공사", "ADDR": "부산광역시 부산진구 중앙대로 지하 730", "TEL": "051-678-6119", "BASE_DT": "2022-11-30" }, "geometry": { "type": "Point", "coordinates": [ 129.059035752370988, 35.157764059003 ] } },
{ "type": "Feature", "properties": { "STN_ID": "0120", "STN_KOR": "부전", "LINE_ID": "S2601", "LINE_NM": "부산 도시철도 1호선", "STN_EN": "Bujeon", "STN_HAN": "釜田", "TRSF_TYPE": "일반역", "TRSF_L_ID": null, "TRSF_L_NM": null, "LAT": 35.162635566337499, "LON": 129.063011866198, "OPERATOR": "부산광역시 부산교통공사", "ADDR": "부산광역시 부산진구 중앙대로 지하 786", "TEL": "051-678-6120", "BASE_DT": "2022-11-30" }, "geometry": { "type": "Point", "coordinates": [ 129.063011866197996, 35.162635566337499 ] } },
{ "type": "Feature", "properties": { "STN_ID": "0121", "STN_KOR": "양정", "LINE_ID": "S2601", "LINE_NM": "부산 도시철도 1호선", "STN_EN": "Yangjeong", "STN_HAN": "楊亭", "TRSF_TYPE": "일반역", "TRSF_L_ID": null, "TRSF_L_NM": null, "LAT": 35.172966889552001, "LON": 129.07122170987799, "OPERATOR": "부산광역시 부산교통공사", "ADDR": "부산광역시 부산진구 중앙대로 지하930", "TEL": "051-678-6121", "BASE_DT": "2022-11-30" }, "geometry": { "type": "Point", "coordinates": [ 129.071221709877989, 35.172966889552001 ] } },
{ "type": "Feature", "properties": { "STN_ID": "0122", "STN_KOR": "시청", "LINE_ID": "S2601", "LINE_NM": "부산 도시철도 1호선", "STN_EN": "City Hall", "STN_HAN": "市廳", "TRSF_TYPE": "일반역", "TRSF_L_ID": null, "TRSF_L_NM": null, "LAT": 35.179776677631601, "LON": 129.07662389978501, "OPERATOR": "부산광역시 부산교통공사", "ADDR": "부산광역시 연제구 중앙대로 지하 1017", "TEL": "051-678-6122", "BASE_DT": "2022-11-30" }, "geometry": { "type": "Point", "coordinates": [ 129.076623899785005, 35.179776677631601 ] } },
{ "type": "Feature", "properties": { "STN_ID": "0123", "STN_KOR": "연산", "LINE_ID": "S2601", "LINE_NM": "부산 도시철도 1호선", "STN_EN": "Yeonsan", "STN_HAN": "蓮山", "TRSF_TYPE": "환승역", "TRSF_L_ID": "S2601+S2603", "TRSF_L_NM": "부산 도시철도 1호선+부산 도시철도 3호선", "LAT": 35.186072402728698, "LON": 129.08150501463399, "OPERATOR": "부산광역시 부산교통공사", "ADDR": "부산광역시 연제구 중앙대로 지하 1101", "TEL": "051-678-6123", "BASE_DT": "2022-11-30" }, "geometry": { "type": "Point", "coordinates": [ 129.08150501463399, 35.186072402728698 ] } },
{ "type": "Feature", "properties": { "STN_ID": "0124", "STN_KOR": "교대", "LINE_ID": "S2601", "LINE_NM": "부산 도시철도 1호선", "STN_EN": "Busan Nat'l Univ. of Edu", "STN_HAN": "釜山敎育大學校", "TRSF_TYPE": "환승역", "TRSF_L_ID": "S2601+I26K6", "TRSF_L_NM": "부산 도시철도 1호선+동해선", "LAT": 35.196099652229698, "LON": 129.079888998569, "OPERATOR": "부산광역시 부산교통공사", "ADDR": "부산광역시 연제구 중앙대로 지하 1217", "TEL": "051-678-6124", "BASE_DT": "2022-11-30" }, "geometry": { "type": "Point", "coordinates": [ 129.079888998569004, 35.196099652229698 ] } },
{ "type": "Feature", "properties": { "STN_ID": "0125", "STN_KOR": "동래", "LINE_ID": "S2601", "LINE_NM": "부산 도시철도 1호선", "STN_EN": "Dongnae", "STN_HAN": "東萊", "TRSF_TYPE": "환승역", "TRSF_L_ID": "S2601+L2604", "TRSF_L_NM": "부산 도시철도 1호선+부산 경량도시철도 4호선", "LAT": 35.205618039108003, "LON": 129.078480143881, "OPERATOR": "부산광역시 부산교통공사", "ADDR": "부산광역시 동래구 중앙대로 1324", "TEL": "051-678-6125", "BASE_DT": "2022-11-30" }, "geometry": { "type": "Point", "coordinates": [ 129.078480143880995, 35.205618039108003 ] } },
{ "type": "Feature", "properties": { "STN_ID": "0126", "STN_KOR": "명륜", "LINE_ID": "S2601", "LINE_NM": "부산 도시철도 1호선", "STN_EN": "Myeongnyun", "STN_HAN": "明倫", "TRSF_TYPE": "일반역", "TRSF_L_ID": null, "TRSF_L_NM": null, "LAT": 35.212575505365002, "LON": 129.07970044919199, "OPERATOR": "부산광역시 부산교통공사", "ADDR": "부산광역시 동래구 중앙대로 1414", "TEL": "051-678-6126", "BASE_DT": "2022-11-30" }, "geometry": { "type": "Point", "coordinates": [ 129.079700449191989, 35.212575505365002 ] } },
{ "type": "Feature", "properties": { "STN_ID": "0127", "STN_KOR": "온천장", "LINE_ID": "S2601", "LINE_NM": "부산 도시철도 1호선", "STN_EN": "Oncheonjang", "STN_HAN": "溫泉場", "TRSF_TYPE": "일반역", "TRSF_L_ID": null, "TRSF_L_NM": null, "LAT": 35.220275902349201, "LON": 129.08639760420101, "OPERATOR": "부산광역시 부산교통공사", "ADDR": "부산광역시 동래구 중앙대로 1520", "TEL": "051-678-6127", "BASE_DT": "2022-11-30" }, "geometry": { "type": "Point", "coordinates": [ 129.086397604201011, 35.220275902349201 ] } },
{ "type": "Feature", "properties": { "STN_ID": "0128", "STN_KOR": "부산대", "LINE_ID": "S2601", "LINE_NM": "부산 도시철도 1호선", "STN_EN": "Pusan Nat’l Univ.", "STN_HAN": "釜山大學校", "TRSF_TYPE": "일반역", "TRSF_L_ID": null, "TRSF_L_NM": null, "LAT": 35.229616858121098, "LON": 129.08934228089899, "OPERATOR": "부산광역시 부산교통공사", "ADDR": "부산광역시 금정구 장전온천천로 48", "TEL": "051-678-6128", "BASE_DT": "2022-11-30" }, "geometry": { "type": "Point", "coordinates": [ 129.08934228089899, 35.229616858121098 ] } },
{ "type": "Feature", "properties": { "STN_ID": "0129", "STN_KOR": "장전", "LINE_ID": "S2601", "LINE_NM": "부산 도시철도 1호선", "STN_EN": "Jangjeon", "STN_HAN": "長箭", "TRSF_TYPE": "일반역", "TRSF_L_ID": null, "TRSF_L_NM": null, "LAT": 35.2380895492619, "LON": 129.08814580438701, "OPERATOR": "부산광역시 부산교통공사", "ADDR": "부산광역시 금정구 장전온천천로 144", "TEL": "051-678-6129", "BASE_DT": "2022-11-30" }, "geometry": { "type": "Point", "coordinates": [ 129.088145804387011, 35.2380895492619 ] } },
{ "type": "Feature", "properties": { "STN_ID": "0130", "STN_KOR": "구서", "LINE_ID": "S2601", "LINE_NM": "부산 도시철도 1호선", "STN_EN": "Guseo", "STN_HAN": "久瑞", "TRSF_TYPE": "일반역", "TRSF_L_ID": null, "TRSF_L_NM": null, "LAT": 35.2472673132823, "LON": 129.09129397796099, "OPERATOR": "부산광역시 부산교통공사", "ADDR": "부산광역시 금정구 금정로 233번길 46", "TEL": "051-678-6130", "BASE_DT": "2022-11-30" }, "geometry": { "type": "Point", "coordinates": [ 129.091293977960987, 35.2472673132823 ] } },
{ "type": "Feature", "properties": { "STN_ID": "0131", "STN_KOR": "두실", "LINE_ID": "S2601", "LINE_NM": "부산 도시철도 1호선", "STN_EN": "Dusil", "STN_HAN": "斗實", "TRSF_TYPE": "일반역", "TRSF_L_ID": null, "TRSF_L_NM": null, "LAT": 35.256874787876299, "LON": 129.091412743652, "OPERATOR": "부산광역시 부산교통공사", "ADDR": "부산광역시 금정구 중앙대로 1927-1", "TEL": "051-678-6131", "BASE_DT": "2022-11-30" }, "geometry": { "type": "Point", "coordinates": [ 129.091412743652, 35.256874787876299 ] } },
{ "type": "Feature", "properties": { "STN_ID": "0132", "STN_KOR": "남산", "LINE_ID": "S2601", "LINE_NM": "부산 도시철도 1호선", "STN_EN": "Namsan", "STN_HAN": "南山", "TRSF_TYPE": "일반역", "TRSF_L_ID": null, "TRSF_L_NM": null, "LAT": 35.26528, "LON": 129.0925, "OPERATOR": "부산광역시 부산교통공사", "ADDR": "부산광역시 금정구 중앙대로 지하2019-1", "TEL": "051-678-6132", "BASE_DT": "2022-11-30" }, "geometry": { "type": "Point", "coordinates": [ 129.0925, 35.26528 ] } },
{ "type": "Feature", "properties": { "STN_ID": "0133", "STN_KOR": "범어사", "LINE_ID": "S2601", "LINE_NM": "부산 도시철도 1호선", "STN_EN": "Beomeosa", "STN_HAN": "梵魚寺", "TRSF_TYPE": "일반역", "TRSF_L_ID": null, "TRSF_L_NM": null, "LAT": 35.27333, "LON": 129.09278, "OPERATOR": "부산광역시 부산교통공사", "ADDR": "부산광역시 금정구 중앙대로 지하 2107", "TEL": "051-678-6133", "BASE_DT": "2022-11-30" }, "geometry": { "type": "Point", "coordinates": [ 129.09278, 35.27333 ] } },
{ "type": "Feature", "properties": { "STN_ID": "0134", "STN_KOR": "노포", "LINE_ID": "S2601", "LINE_NM": "부산 도시철도 1호선", "STN_EN": "Nopo", "STN_HAN": "老圃", "TRSF_TYPE": "일반역", "TRSF_L_ID": null, "TRSF_L_NM": null, "LAT": 35.284686675890597, "LON": 129.09548007421199, "OPERATOR": "부산광역시 부산교통공사", "ADDR": "부산광역시 금정구 중앙대로 2238", "TEL": "051-678-6134", "BASE_DT": "2022-11-30" }, "geometry": { "type": "Point", "coordinates": [ 129.095480074211991, 35.284686675890597 ] } },
{ "type": "Feature", "properties": { "STN_ID": "0201", "STN_KOR": "장산", "LINE_ID": "S2602", "LINE_NM": "부산 도시철도 2호선", "STN_EN": "Jangsan", "STN_HAN": "山", "TRSF_TYPE": "일반역", "TRSF_L_ID": null, "TRSF_L_NM": null, "LAT": 35.169930199837502, "LON": 129.176949540393, "OPERATOR": "부산광역시 부산교통공사", "ADDR": "부산광역시 해운대구 해운대로 지하 820", "TEL": "051-678-6201", "BASE_DT": "2022-11-30" }, "geometry": { "type": "Point", "coordinates": [ 129.176949540392997, 35.169930199837502 ] } },
{ "type": "Feature", "properties": { "STN_ID": "0202", "STN_KOR": "중동", "LINE_ID": "S2602", "LINE_NM": "부산 도시철도 2호선", "STN_EN": "Jung-dong", "STN_HAN": "中洞", "TRSF_TYPE": "일반역", "TRSF_L_ID": null, "TRSF_L_NM": null, "LAT": 35.1666522512391, "LON": 129.168611487916, "OPERATOR": "부산광역시 부산교통공사", "ADDR": "부산광역시 해운대구 해운대로 지하 730", "TEL": "051-678-6202", "BASE_DT": "2022-11-30" }, "geometry": { "type": "Point", "coordinates": [ 129.168611487915996, 35.1666522512391 ] } },
{ "type": "Feature", "properties": { "STN_ID": "0203", "STN_KOR": "해운대", "LINE_ID": "S2602", "LINE_NM": "부산 도시철도 2호선", "STN_EN": "Haeundae", "STN_HAN": "海雲臺", "TRSF_TYPE": "일반역", "TRSF_L_ID": null, "TRSF_L_NM": null, "LAT": 35.163643794500601, "LON": 129.158873317353, "OPERATOR": "부산광역시 부산교통공사", "ADDR": "부산광역시 해운대구 해운대로 지하 626", "TEL": "051-678-6203", "BASE_DT": "2022-11-30" }, "geometry": { "type": "Point", "coordinates": [ 129.158873317352999, 35.163643794500601 ] } },
{ "type": "Feature", "properties": { "STN_ID": "0204", "STN_KOR": "동백", "LINE_ID": "S2602", "LINE_NM": "부산 도시철도 2호선", "STN_EN": "Dongbaek", "STN_HAN": "冬柏", "TRSF_TYPE": "일반역", "TRSF_L_ID": null, "TRSF_L_NM": null, "LAT": 35.1610629346171, "LON": 129.14868874993999, "OPERATOR": "부산광역시 부산교통공사", "ADDR": "부산광역시 해운대구 해운대로 지하 522", "TEL": "051-678-6204", "BASE_DT": "2022-11-30" }, "geometry": { "type": "Point", "coordinates": [ 129.148688749939993, 35.1610629346171 ] } },
{ "type": "Feature", "properties": { "STN_ID": "0205", "STN_KOR": "벡스코", "LINE_ID": "S2602", "LINE_NM": "부산 도시철도 2호선", "STN_EN": "BEXCO", "STN_HAN": "BEXCO", "TRSF_TYPE": "환승역", "TRSF_L_ID": "S2602+I26K6", "TRSF_L_NM": "부산 도시철도 2호선+동해선", "LAT": 35.1688870173585, "LON": 129.138876080584, "OPERATOR": "부산광역시 부산교통공사", "ADDR": "부산광역시 해운대구 해운대로 지하 396", "TEL": "051-678-6205", "BASE_DT": "2022-11-30" }, "geometry": { "type": "Point", "coordinates": [ 129.138876080583998, 35.1688870173585 ] } },
{ "type": "Feature", "properties": { "STN_ID": "0206", "STN_KOR": "센텀시티", "LINE_ID": "S2602", "LINE_NM": "부산 도시철도 2호선", "STN_EN": "Centum City", "STN_HAN": "CentumCity", "TRSF_TYPE": "일반역", "TRSF_L_ID": null, "TRSF_L_NM": null, "LAT": 35.169278425314701, "LON": 129.13236458411001, "OPERATOR": "부산광역시 부산교통공사", "ADDR": "부산광역시 해운대구 센텀남대로 지하 76", "TEL": "051-678-6206", "BASE_DT": "2022-11-30" }, "geometry": { "type": "Point", "coordinates": [ 129.132364584110007, 35.169278425314701 ] } },
{ "type": "Feature", "properties": { "STN_ID": "0207", "STN_KOR": "민락", "LINE_ID": "S2602", "LINE_NM": "부산 도시철도 2호선", "STN_EN": "Millak", "STN_HAN": "民樂", "TRSF_TYPE": "일반역", "TRSF_L_ID": null, "TRSF_L_NM": null, "LAT": 35.167065826071699, "LON": 129.12210109309601, "OPERATOR": "부산광역시 부산교통공사", "ADDR": "부산광역시 수영구 수영로 지하 769", "TEL": "051-678-6207", "BASE_DT": "2022-11-30" }, "geometry": { "type": "Point", "coordinates": [ 129.122101093096006, 35.167065826071699 ] } },
{ "type": "Feature", "properties": { "STN_ID": "0208", "STN_KOR": "수영", "LINE_ID": "S2602", "LINE_NM": "부산 도시철도 2호선", "STN_EN": "Suyeong", "STN_HAN": "水營", "TRSF_TYPE": "환승역", "TRSF_L_ID": "S2602+S2603", "TRSF_L_NM": "부산 도시철도 2호선+부산 도시철도 3호선", "LAT": 35.165891710137601, "LON": 129.114828522838, "OPERATOR": "부산광역시 부산교통공사", "ADDR": "부산광역시 수영구 수영로 지하 677", "TEL": "051-678-6208", "BASE_DT": "2022-11-30" }, "geometry": { "type": "Point", "coordinates": [ 129.114828522837996, 35.165891710137601 ] } },
{ "type": "Feature", "properties": { "STN_ID": "0209", "STN_KOR": "광안", "LINE_ID": "S2602", "LINE_NM": "부산 도시철도 2호선", "STN_EN": "Gwangan", "STN_HAN": "廣安", "TRSF_TYPE": "일반역", "TRSF_L_ID": null, "TRSF_L_NM": null, "LAT": 35.1579209174973, "LON": 129.11317270759099, "OPERATOR": "부산광역시 부산교통공사", "ADDR": "부산광역시 수영구 수영로 지하 576", "TEL": "051-678-6209", "BASE_DT": "2022-11-30" }, "geometry": { "type": "Point", "coordinates": [ 129.113172707590991, 35.1579209174973 ] } },
{ "type": "Feature", "properties": { "STN_ID": "0210", "STN_KOR": "금련산", "LINE_ID": "S2602", "LINE_NM": "부산 도시철도 2호선", "STN_EN": "Geumnyeonsan", "STN_HAN": "金蓮山", "TRSF_TYPE": "일반역", "TRSF_L_ID": null, "TRSF_L_NM": null, "LAT": 35.149743925678699, "LON": 129.11095730177499, "OPERATOR": "부산광역시 부산교통공사", "ADDR": "부산광역시 수영구 수영로 지하 482", "TEL": "051-678-6210", "BASE_DT": "2022-11-30" }, "geometry": { "type": "Point", "coordinates": [ 129.110957301774988, 35.149743925678699 ] } },
{ "type": "Feature", "properties": { "STN_ID": "0211", "STN_KOR": "남천", "LINE_ID": "S2602", "LINE_NM": "부산 도시철도 2호선", "STN_EN": "Namcheon", "STN_HAN": "南川", "TRSF_TYPE": "일반역", "TRSF_L_ID": null, "TRSF_L_NM": null, "LAT": 35.142152723001701, "LON": 129.107970121975, "OPERATOR": "부산광역시 부산교통공사", "ADDR": "부산광역시 수영구 수영로 지하 410", "TEL": "051-678-6211", "BASE_DT": "2022-11-30" }, "geometry": { "type": "Point", "coordinates": [ 129.107970121975001, 35.142152723001701 ] } },
{ "type": "Feature", "properties": { "STN_ID": "0212", "STN_KOR": "경성대·부경대", "LINE_ID": "S2602", "LINE_NM": "부산 도시철도 2호선", "STN_EN": "Kyungsung Univ.·Pukyong Nat’l Univ.", "STN_HAN": "慶星大釜慶大", "TRSF_TYPE": "일반역", "TRSF_L_ID": null, "TRSF_L_NM": null, "LAT": 35.137557661645197, "LON": 129.10044168359499, "OPERATOR": "부산광역시 부산교통공사", "ADDR": "부산광역시 남구 수영로 지하 324", "TEL": "051-678-6212", "BASE_DT": "2022-11-30" }, "geometry": { "type": "Point", "coordinates": [ 129.100441683594994, 35.137557661645197 ] } },
{ "type": "Feature", "properties": { "STN_ID": "0213", "STN_KOR": "대연", "LINE_ID": "S2602", "LINE_NM": "부산 도시철도 2호선", "STN_EN": "Daeyeon", "STN_HAN": "大淵", "TRSF_TYPE": "일반역", "TRSF_L_ID": null, "TRSF_L_NM": null, "LAT": 35.135117702459297, "LON": 129.092296703101, "OPERATOR": "부산광역시 부산교통공사", "ADDR": "부산광역시 남구 수영로 지하 242", "TEL": "051-678-6213", "BASE_DT": "2022-11-30" }, "geometry": { "type": "Point", "coordinates": [ 129.092296703100999, 35.135117702459297 ] } },
{ "type": "Feature", "properties": { "STN_ID": "0214", "STN_KOR": "못골", "LINE_ID": "S2602", "LINE_NM": "부산 도시철도 2호선", "STN_EN": "Motgol", "STN_HAN": "池谷", "TRSF_TYPE": "일반역", "TRSF_L_ID": null, "TRSF_L_NM": null, "LAT": 35.134722093769902, "LON": 129.08484331172801, "OPERATOR": "부산광역시 부산교통공사", "ADDR": "부산광역시 남구 수영로 지하 170", "TEL": "051-678-6214", "BASE_DT": "2022-11-30" }, "geometry": { "type": "Point", "coordinates": [ 129.084843311728008, 35.134722093769902 ] } },
{ "type": "Feature", "properties": { "STN_ID": "0215", "STN_KOR": "지게골", "LINE_ID": "S2602", "LINE_NM": "부산 도시철도 2호선", "STN_EN": "Jigegol", "STN_HAN": "支架谷", "TRSF_TYPE": "일반역", "TRSF_L_ID": null, "TRSF_L_NM": null, "LAT": 35.135627679037199, "LON": 129.07423362693501, "OPERATOR": "부산광역시 부산교통공사", "ADDR": "부산광역시 남구 수영로 지하 70", "TEL": "051-678-6215", "BASE_DT": "2022-11-30" }, "geometry": { "type": "Point", "coordinates": [ 129.074233626935012, 35.135627679037199 ] } },
{ "type": "Feature", "properties": { "STN_ID": "0216", "STN_KOR": "문현", "LINE_ID": "S2602", "LINE_NM": "부산 도시철도 2호선", "STN_EN": "Munhyeon", "STN_HAN": "門峴", "TRSF_TYPE": "일반역", "TRSF_L_ID": null, "TRSF_L_NM": null, "LAT": 35.139158174919999, "LON": 129.06727972159399, "OPERATOR": "부산광역시 부산교통공사", "ADDR": "부산광역시 남구 전포대로 지하 17", "TEL": "051-678-6216", "BASE_DT": "2022-11-30" }, "geometry": { "type": "Point", "coordinates": [ 129.067279721593991, 35.139158174919999 ] } },
{ "type": "Feature", "properties": { "STN_ID": "0217", "STN_KOR": "국제금융센터·부산은행", "LINE_ID": "S2602", "LINE_NM": "부산 도시철도 2호선", "STN_EN": "Busan Int’l Finance Center·Busan Bank", "STN_HAN": "釜山國際金融中心·釜山銀行", "TRSF_TYPE": "일반역", "TRSF_L_ID": null, "TRSF_L_NM": null, "LAT": 35.145733112076201, "LON": 129.066743215179, "OPERATOR": "부산광역시 부산교통공사", "ADDR": "부산광역시 남구 전포대로 지하97", "TEL": "051-678-6217", "BASE_DT": "2022-11-30" }, "geometry": { "type": "Point", "coordinates": [ 129.066743215179002, 35.145733112076201 ] } },
{ "type": "Feature", "properties": { "STN_ID": "0218", "STN_KOR": "전포", "LINE_ID": "S2602", "LINE_NM": "부산 도시철도 2호선", "STN_EN": "Jeonpo", "STN_HAN": "田浦", "TRSF_TYPE": "일반역", "TRSF_L_ID": null, "TRSF_L_NM": null, "LAT": 35.1528347392059, "LON": 129.06536324974499, "OPERATOR": "부산광역시 부산교통공사", "ADDR": "부산광역시 부산진구 전포대로 지하 181", "TEL": "051-678-6218", "BASE_DT": "2022-11-30" }, "geometry": { "type": "Point", "coordinates": [ 129.065363249744991, 35.1528347392059 ] } },
{ "type": "Feature", "properties": { "STN_ID": "0219", "STN_KOR": "서면", "LINE_ID": "S2602", "LINE_NM": "부산 도시철도 2호선", "STN_EN": "Seomyeon", "STN_HAN": "西面", "TRSF_TYPE": "환승역", "TRSF_L_ID": "S2601+S2602", "TRSF_L_NM": "부산 도시철도 1호선+부산 도시철도 2호선", "LAT": 35.15778, "LON": 129.05917, "OPERATOR": "부산광역시 부산교통공사", "ADDR": "부산광역시 부산진구 부전동 573번지", "TEL": "051-678-6219", "BASE_DT": "2022-11-30" }, "geometry": { "type": "Point", "coordinates": [ 129.05917, 35.15778 ] } },
{ "type": "Feature", "properties": { "STN_ID": "0220", "STN_KOR": "부암", "LINE_ID": "S2602", "LINE_NM": "부산 도시철도 2호선", "STN_EN": "Buam", "STN_HAN": "釜岩", "TRSF_TYPE": "일반역", "TRSF_L_ID": null, "TRSF_L_NM": null, "LAT": 35.157435901342801, "LON": 129.05042849774699, "OPERATOR": "부산광역시 부산교통공사", "ADDR": "부산광역시 부산진구 가야대로 지하 719", "TEL": "051-678-6220", "BASE_DT": "2022-11-30" }, "geometry": { "type": "Point", "coordinates": [ 129.050428497746992, 35.157435901342801 ] } },
{ "type": "Feature", "properties": { "STN_ID": "0221", "STN_KOR": "가야", "LINE_ID": "S2602", "LINE_NM": "부산 도시철도 2호선", "STN_EN": "Gaya", "STN_HAN": "伽倻", "TRSF_TYPE": "일반역", "TRSF_L_ID": null, "TRSF_L_NM": null, "LAT": 35.155873990757698, "LON": 129.04281959716499, "OPERATOR": "부산광역시 부산교통공사", "ADDR": "부산광역시 부산진구 가야대로 지하 650", "TEL": "051-678-6221", "BASE_DT": "2022-11-30" }, "geometry": { "type": "Point", "coordinates": [ 129.042819597164993, 35.155873990757698 ] } },
{ "type": "Feature", "properties": { "STN_ID": "0222", "STN_KOR": "동의대", "LINE_ID": "S2602", "LINE_NM": "부산 도시철도 2호선", "STN_EN": "Dong-eui Univ.", "STN_HAN": "東義大", "TRSF_TYPE": "일반역", "TRSF_L_ID": null, "TRSF_L_NM": null, "LAT": 35.154039561429201, "LON": 129.03255277369101, "OPERATOR": "부산광역시 부산교통공사", "ADDR": "부산광역시 부산진구 가야대로 지하 554", "TEL": "051-678-6222", "BASE_DT": "2022-11-30" }, "geometry": { "type": "Point", "coordinates": [ 129.032552773691009, 35.154039561429201 ] } },
{ "type": "Feature", "properties": { "STN_ID": "0223", "STN_KOR": "개금", "LINE_ID": "S2602", "LINE_NM": "부산 도시철도 2호선", "STN_EN": "Gaegeum", "STN_HAN": "開琴", "TRSF_TYPE": "일반역", "TRSF_L_ID": null, "TRSF_L_NM": null, "LAT": 35.153194292723803, "LON": 129.02037357347299, "OPERATOR": "부산광역시 부산교통공사", "ADDR": "부산광역시 부산진구 가야대로 지하 442", "TEL": "051-678-6223", "BASE_DT": "2022-11-30" }, "geometry": { "type": "Point", "coordinates": [ 129.020373573472995, 35.153194292723803 ] } },
{ "type": "Feature", "properties": { "STN_ID": "0224", "STN_KOR": "냉정", "LINE_ID": "S2602", "LINE_NM": "부산 도시철도 2호선", "STN_EN": "Naengjeong", "STN_HAN": "冷井", "TRSF_TYPE": "일반역", "TRSF_L_ID": null, "TRSF_L_NM": null, "LAT": 35.151267694383897, "LON": 129.012524113419, "OPERATOR": "부산광역시 부산교통공사", "ADDR": "부산광역시 사상구 가야대로 지하 362-1", "TEL": "051-678-6224", "BASE_DT": "2022-11-30" }, "geometry": { "type": "Point", "coordinates": [ 129.012524113419005, 35.151267694383897 ] } },
{ "type": "Feature", "properties": { "STN_ID": "0225", "STN_KOR": "주례", "LINE_ID": "S2602", "LINE_NM": "부산 도시철도 2호선", "STN_EN": "Jurye", "STN_HAN": "周禮", "TRSF_TYPE": "일반역", "TRSF_L_ID": null, "TRSF_L_NM": null, "LAT": 35.150504652061102, "LON": 129.00313706466801, "OPERATOR": "부산광역시 부산교통공사", "ADDR": "부산광역시 사상구 가야대로 지하 292", "TEL": "051-678-6225", "BASE_DT": "2022-11-30" }, "geometry": { "type": "Point", "coordinates": [ 129.00313706466801, 35.150504652061102 ] } },
{ "type": "Feature", "properties": { "STN_ID": "0226", "STN_KOR": "감전", "LINE_ID": "S2602", "LINE_NM": "부산 도시철도 2호선", "STN_EN": "Gamjeon", "STN_HAN": "甘田", "TRSF_TYPE": "일반역", "TRSF_L_ID": null, "TRSF_L_NM": null, "LAT": 35.155535461066897, "LON": 128.99126707892501, "OPERATOR": "부산광역시 부산교통공사", "ADDR": "부산광역시 사상구 사상로 지하 93-1", "TEL": "051-678-6226", "BASE_DT": "2022-11-30" }, "geometry": { "type": "Point", "coordinates": [ 128.991267078925006, 35.155535461066897 ] } },
{ "type": "Feature", "properties": { "STN_ID": "0227", "STN_KOR": "사상", "LINE_ID": "S2602", "LINE_NM": "부산 도시철도 2호선", "STN_EN": "Sasang", "STN_HAN": "沙上", "TRSF_TYPE": "환승역", "TRSF_L_ID": "S2602+L26B1", "TRSF_L_NM": "부산 도시철도 2호선+부산김해경전철", "LAT": 35.162464575592402, "LON": 128.98463663537299, "OPERATOR": "부산광역시 부산교통공사", "ADDR": "부산광역시 사상구 사상로 지하 203", "TEL": "051-678-6227", "BASE_DT": "2022-11-30" }, "geometry": { "type": "Point", "coordinates": [ 128.984636635372993, 35.162464575592402 ] } },
{ "type": "Feature", "properties": { "STN_ID": "0228", "STN_KOR": "덕포", "LINE_ID": "S2602", "LINE_NM": "부산 도시철도 2호선", "STN_EN": "Deokpo", "STN_HAN": "德浦", "TRSF_TYPE": "일반역", "TRSF_L_ID": null, "TRSF_L_NM": null, "LAT": 35.173952258575099, "LON": 128.98396848456301, "OPERATOR": "부산광역시 부산교통공사", "ADDR": "부산광역시 사상구 사상로 지하 320-1", "TEL": "051-678-6228", "BASE_DT": "2022-11-30" }, "geometry": { "type": "Point", "coordinates": [ 128.983968484563007, 35.173952258575099 ] } },
{ "type": "Feature", "properties": { "STN_ID": "0229", "STN_KOR": "모덕", "LINE_ID": "S2602", "LINE_NM": "부산 도시철도 2호선", "STN_EN": "Modeok", "STN_HAN": "毛德", "TRSF_TYPE": "일반역", "TRSF_L_ID": null, "TRSF_L_NM": null, "LAT": 35.180396903277099, "LON": 128.98556335249, "OPERATOR": "부산광역시 부산교통공사", "ADDR": "부산광역시 사상구 사상로 지하 409", "TEL": "051-678-6229", "BASE_DT": "2022-11-30" }, "geometry": { "type": "Point", "coordinates": [ 128.985563352490004, 35.180396903277099 ] } },
{ "type": "Feature", "properties": { "STN_ID": "0230", "STN_KOR": "모라", "LINE_ID": "S2602", "LINE_NM": "부산 도시철도 2호선", "STN_EN": "Mora", "STN_HAN": "毛羅", "TRSF_TYPE": "일반역", "TRSF_L_ID": null, "TRSF_L_NM": null, "LAT": 35.189641891345801, "LON": 128.98860810756901, "OPERATOR": "부산광역시 부산교통공사", "ADDR": "부산광역시 사상구 사상로 지하 498", "TEL": "051-678-6230", "BASE_DT": "2022-11-30" }, "geometry": { "type": "Point", "coordinates": [ 128.988608107569007, 35.189641891345801 ] } },
{ "type": "Feature", "properties": { "STN_ID": "0231", "STN_KOR": "구남", "LINE_ID": "S2602", "LINE_NM": "부산 도시철도 2호선", "STN_EN": "Gunam", "STN_HAN": "龜南", "TRSF_TYPE": "일반역", "TRSF_L_ID": null, "TRSF_L_NM": null, "LAT": 35.196920020972897, "LON": 128.994999341653, "OPERATOR": "부산광역시 부산교통공사", "ADDR": "부산광역시 북구 백양대로 지하 1026", "TEL": "051-678-6231", "BASE_DT": "2022-11-30" }, "geometry": { "type": "Point", "coordinates": [ 128.994999341652999, 35.196920020972897 ] } },
{ "type": "Feature", "properties": { "STN_ID": "0232", "STN_KOR": "구명", "LINE_ID": "S2602", "LINE_NM": "부산 도시철도 2호선", "STN_EN": "Gumyeong", "STN_HAN": "龜明", "TRSF_TYPE": "일반역", "TRSF_L_ID": null, "TRSF_L_NM": null, "LAT": 35.202747103397897, "LON": 128.99950294607501, "OPERATOR": "부산광역시 부산교통공사", "ADDR": "부산광역시 북구 백양대로 지하 1094", "TEL": "051-678-6232", "BASE_DT": "2022-11-30" }, "geometry": { "type": "Point", "coordinates": [ 128.999502946075012, 35.202747103397897 ] } },
{ "type": "Feature", "properties": { "STN_ID": "0233", "STN_KOR": "덕천", "LINE_ID": "S2602", "LINE_NM": "부산 도시철도 2호선", "STN_EN": "Deokcheon", "STN_HAN": "德川", "TRSF_TYPE": "환승역", "TRSF_L_ID": "S2602+S2603", "TRSF_L_NM": "부산 도시철도 2호선+부산 도시철도 3호선", "LAT": 35.210977459959103, "LON": 129.00497216501299, "OPERATOR": "부산광역시 부산교통공사", "ADDR": "부산광역시 북구 금곡대로 지하 14", "TEL": "051-678-6233", "BASE_DT": "2022-11-30" }, "geometry": { "type": "Point", "coordinates": [ 129.004972165012987, 35.210977459959103 ] } },
{ "type": "Feature", "properties": { "STN_ID": "0234", "STN_KOR": "수정", "LINE_ID": "S2602", "LINE_NM": "부산 도시철도 2호선", "STN_EN": "Sujeong", "STN_HAN": "水亭", "TRSF_TYPE": "일반역", "TRSF_L_ID": null, "TRSF_L_NM": null, "LAT": 35.2230835573286, "LON": 129.009148601943, "OPERATOR": "부산광역시 부산교통공사", "ADDR": "부산광역시 북구 금곡대로 지하160", "TEL": "051-678-6234", "BASE_DT": "2022-11-30" }, "geometry": { "type": "Point", "coordinates": [ 129.009148601942996, 35.2230835573286 ] } },
{ "type": "Feature", "properties": { "STN_ID": "0235", "STN_KOR": "화명", "LINE_ID": "S2602", "LINE_NM": "부산 도시철도 2호선", "STN_EN": "Hwamyeong", "STN_HAN": "華明", "TRSF_TYPE": "일반역", "TRSF_L_ID": null, "TRSF_L_NM": null, "LAT": 35.235803161120003, "LON": 129.01387720598399, "OPERATOR": "부산광역시 부산교통공사", "ADDR": "부산광역시 북구 금곡대로 지하 311", "TEL": "051-678-6235", "BASE_DT": "2022-11-30" }, "geometry": { "type": "Point", "coordinates": [ 129.013877205983988, 35.235803161120003 ] } },
{ "type": "Feature", "properties": { "STN_ID": "0236", "STN_KOR": "율리", "LINE_ID": "S2602", "LINE_NM": "부산 도시철도 2호선", "STN_EN": "Yulli", "STN_HAN": "栗里", "TRSF_TYPE": "일반역", "TRSF_L_ID": null, "TRSF_L_NM": null, "LAT": 35.247168788188702, "LON": 129.01291776414101, "OPERATOR": "부산광역시 부산교통공사", "ADDR": "부산광역시 북구 금곡대로 지하 440", "TEL": "051-678-6236", "BASE_DT": "2022-11-30" }, "geometry": { "type": "Point", "coordinates": [ 129.012917764141008, 35.247168788188702 ] } },
{ "type": "Feature", "properties": { "STN_ID": "0237", "STN_KOR": "동원", "LINE_ID": "S2602", "LINE_NM": "부산 도시철도 2호선", "STN_EN": "Dongwon", "STN_HAN": "東院", "TRSF_TYPE": "일반역", "TRSF_L_ID": null, "TRSF_L_NM": null, "LAT": 35.258643799236403, "LON": 129.01239679122199, "OPERATOR": "부산광역시 부산교통공사", "ADDR": "부산광역시 북구 금곡대로 575", "TEL": "051-678-6237", "BASE_DT": "2022-11-30" }, "geometry": { "type": "Point", "coordinates": [ 129.012396791221988, 35.258643799236403 ] } },
{ "type": "Feature", "properties": { "STN_ID": "0238", "STN_KOR": "금곡", "LINE_ID": "S2602", "LINE_NM": "부산 도시철도 2호선", "STN_EN": "Geumgok", "STN_HAN": "金谷", "TRSF_TYPE": "일반역", "TRSF_L_ID": null, "TRSF_L_NM": null, "LAT": 35.267473195750597, "LON": 129.01690640901199, "OPERATOR": "부산광역시 부산교통공사", "ADDR": "부산광역시 북구 금곡대로 685", "TEL": "051-678-6238", "BASE_DT": "2022-11-30" }, "geometry": { "type": "Point", "coordinates": [ 129.016906409011995, 35.267473195750597 ] } },
{ "type": "Feature", "properties": { "STN_ID": "0301", "STN_KOR": "수영", "LINE_ID": "S2603", "LINE_NM": "부산 도시철도 3호선", "STN_EN": "Suyeong", "STN_HAN": "水營", "TRSF_TYPE": "환승역", "TRSF_L_ID": "S2602+S2603", "TRSF_L_NM": "부산 도시철도 2호선+부산 도시철도 3호선", "LAT": 35.166259019473102, "LON": 129.11456017371299, "OPERATOR": "부산광역시 부산교통공사", "ADDR": "부산광역시 수영구 수영로 677", "TEL": "051-678-6301", "BASE_DT": "2022-11-30" }, "geometry": { "type": "Point", "coordinates": [ 129.114560173712988, 35.166259019473102 ] } },
{ "type": "Feature", "properties": { "STN_ID": "0302", "STN_KOR": "망미", "LINE_ID": "S2603", "LINE_NM": "부산 도시철도 3호선", "STN_EN": "Mangmi", "STN_HAN": "望美", "TRSF_TYPE": "일반역", "TRSF_L_ID": null, "TRSF_L_NM": null, "LAT": 35.171529077061898, "LON": 129.10831518235699, "OPERATOR": "부산광역시 부산교통공사", "ADDR": "부산광역시 수영구 연수로 지하 337", "TEL": "051-678-6302", "BASE_DT": "2022-11-30" }, "geometry": { "type": "Point", "coordinates": [ 129.108315182356989, 35.171529077061898 ] } },
{ "type": "Feature", "properties": { "STN_ID": "0303", "STN_KOR": "배산", "LINE_ID": "S2603", "LINE_NM": "부산 도시철도 3호선", "STN_EN": "Baesan", "STN_HAN": "盃山", "TRSF_TYPE": "일반역", "TRSF_L_ID": null, "TRSF_L_NM": null, "LAT": 35.173459751905703, "LON": 129.09572992884, "OPERATOR": "부산광역시 부산교통공사", "ADDR": "부산광역시 연제구 연수로 지하 229", "TEL": "051-678-6303", "BASE_DT": "2022-11-30" }, "geometry": { "type": "Point", "coordinates": [ 129.095729928840001, 35.173459751905703 ] } },
{ "type": "Feature", "properties": { "STN_ID": "0304", "STN_KOR": "물만골", "LINE_ID": "S2603", "LINE_NM": "부산 도시철도 3호선", "STN_EN": "Mulmangol", "STN_HAN": "水滿谷", "TRSF_TYPE": "일반역", "TRSF_L_ID": null, "TRSF_L_NM": null, "LAT": 35.176758569631197, "LON": 129.08560740777301, "OPERATOR": "부산광역시 부산교통공사", "ADDR": "부산광역시 연제구 월드컵대로 지하 23", "TEL": "051-678-6304", "BASE_DT": "2022-11-30" }, "geometry": { "type": "Point", "coordinates": [ 129.085607407773011, 35.176758569631197 ] } },
{ "type": "Feature", "properties": { "STN_ID": "0305", "STN_KOR": "연산", "LINE_ID": "S2603", "LINE_NM": "부산 도시철도 3호선", "STN_EN": "Yeonsan", "STN_HAN": "蓮山", "TRSF_TYPE": "환승역", "TRSF_L_ID": "S2601+S2603", "TRSF_L_NM": "부산 도시철도 1호선+부산 도시철도 3호선", "LAT": 35.189171500055302, "LON": 129.08084290033401, "OPERATOR": "부산광역시 부산교통공사", "ADDR": "부산광역시 연제구 연산동 1515-1번지", "TEL": "051-678-6305", "BASE_DT": "2022-11-30" }, "geometry": { "type": "Point", "coordinates": [ 129.080842900334005, 35.189171500055302 ] } },
{ "type": "Feature", "properties": { "STN_ID": "0306", "STN_KOR": "거제", "LINE_ID": "S2603", "LINE_NM": "부산 도시철도 3호선", "STN_EN": "Geoje", "STN_HAN": "巨堤", "TRSF_TYPE": "환승역", "TRSF_L_ID": "S2603+I26K6", "TRSF_L_NM": "부산 도시철도 3호선+동해선", "LAT": 35.188546688205797, "LON": 129.07396077374401, "OPERATOR": "부산광역시 부산교통공사", "ADDR": "부산광역시 연제구 월드컵대로 지하 209", "TEL": "051-678-6306", "BASE_DT": "2022-11-30" }, "geometry": { "type": "Point", "coordinates": [ 129.073960773744005, 35.188546688205797 ] } },
{ "type": "Feature", "properties": { "STN_ID": "0307", "STN_KOR": "종합운동장", "LINE_ID": "S2603", "LINE_NM": "부산 도시철도 3호선", "STN_EN": "Sports Complex", "STN_HAN": "綜合運動場", "TRSF_TYPE": "일반역", "TRSF_L_ID": null, "TRSF_L_NM": null, "LAT": 35.19125, "LON": 129.0675, "OPERATOR": "부산광역시 부산교통공사", "ADDR": "부산광역시 연제구 아시아드대로 지하 73", "TEL": "051-678-6307", "BASE_DT": "2022-11-30" }, "geometry": { "type": "Point", "coordinates": [ 129.0675, 35.19125 ] } },
{ "type": "Feature", "properties": { "STN_ID": "0308", "STN_KOR": "사직", "LINE_ID": "S2603", "LINE_NM": "부산 도시철도 3호선", "STN_EN": "Sajik", "STN_HAN": "社稷", "TRSF_TYPE": "일반역", "TRSF_L_ID": null, "TRSF_L_NM": null, "LAT": 35.198968541664598, "LON": 129.065058574788, "OPERATOR": "부산광역시 부산교통공사", "ADDR": "부산광역시 동래구 아시아드대로 지하 153", "TEL": "051-678-6308", "BASE_DT": "2022-11-30" }, "geometry": { "type": "Point", "coordinates": [ 129.065058574787997, 35.198968541664598 ] } },
{ "type": "Feature", "properties": { "STN_ID": "0309", "STN_KOR": "미남", "LINE_ID": "S2603", "LINE_NM": "부산 도시철도 3호선", "STN_EN": "Minam", "STN_HAN": "美南", "TRSF_TYPE": "환승역", "TRSF_L_ID": "S2603+L2604", "TRSF_L_NM": "부산 도시철도 3호선+부산 경량도시철도 4호선", "LAT": 35.205596945861899, "LON": 129.068122269653, "OPERATOR": "부산광역시 부산교통공사", "ADDR": "부산광역시 동래구 아시아드대로 지하 232", "TEL": "051-678-6309", "BASE_DT": "2022-11-30" }, "geometry": { "type": "Point", "coordinates": [ 129.068122269653003, 35.205596945861899 ] } },
{ "type": "Feature", "properties": { "STN_ID": "0310", "STN_KOR": "만덕", "LINE_ID": "S2603", "LINE_NM": "부산 도시철도 3호선", "STN_EN": "Mandeok", "STN_HAN": "萬德", "TRSF_TYPE": "일반역", "TRSF_L_ID": null, "TRSF_L_NM": null, "LAT": 35.212956840220599, "LON": 129.03615080580201, "OPERATOR": "부산광역시 부산교통공사", "ADDR": "부산광역시 북구 만덕대로 지하 291", "TEL": "051-678-6310", "BASE_DT": "2022-11-30" }, "geometry": { "type": "Point", "coordinates": [ 129.036150805802009, 35.212956840220599 ] } },
{ "type": "Feature", "properties": { "STN_ID": "0311", "STN_KOR": "남산정", "LINE_ID": "S2603", "LINE_NM": "부산 도시철도 3호선", "STN_EN": "Namsanjeong", "STN_HAN": "南山亭", "TRSF_TYPE": "일반역", "TRSF_L_ID": null, "TRSF_L_NM": null, "LAT": 35.213330083139397, "LON": 129.02415594617599, "OPERATOR": "부산광역시 부산교통공사", "ADDR": "부산광역시 북구 만덕대로 지하 179", "TEL": "051-678-6311", "BASE_DT": "2022-11-30" }, "geometry": { "type": "Point", "coordinates": [ 129.024155946175995, 35.213330083139397 ] } },
{ "type": "Feature", "properties": { "STN_ID": "0312", "STN_KOR": "숙등", "LINE_ID": "S2603", "LINE_NM": "부산 도시철도 3호선", "STN_EN": "Sukdeung", "STN_HAN": "淑嶝", "TRSF_TYPE": "일반역", "TRSF_L_ID": null, "TRSF_L_NM": null, "LAT": 35.212146336796899, "LON": 129.01346882668801, "OPERATOR": "부산광역시 부산교통공사", "ADDR": "부산광역시 북구 만덕대로 지하 79", "TEL": "051-678-6312", "BASE_DT": "2022-11-30" }, "geometry": { "type": "Point", "coordinates": [ 129.013468826688012, 35.212146336796899 ] } },
{ "type": "Feature", "properties": { "STN_ID": "0313", "STN_KOR": "덕천", "LINE_ID": "S2603", "LINE_NM": "부산 도시철도 3호선", "STN_EN": "Deokcheon", "STN_HAN": "德川", "TRSF_TYPE": "환승역", "TRSF_L_ID": "S2602+S2603", "TRSF_L_NM": "부산 도시철도 2호선+부산 도시철도 3호선", "LAT": 35.210257913465597, "LON": 129.00586747327901, "OPERATOR": "부산광역시 부산교통공사", "ADDR": "부산광역시 북구 덕천동 327번지", "TEL": "051-678-6313", "BASE_DT": "2022-11-30" }, "geometry": { "type": "Point", "coordinates": [ 129.005867473279011, 35.210257913465597 ] } },
{ "type": "Feature", "properties": { "STN_ID": "0314", "STN_KOR": "구포", "LINE_ID": "S2603", "LINE_NM": "부산 도시철도 3호선", "STN_EN": "Gupo", "STN_HAN": "龜浦", "TRSF_TYPE": "일반역", "TRSF_L_ID": null, "TRSF_L_NM": null, "LAT": 35.2066707011261, "LON": 128.99641272915801, "OPERATOR": "부산광역시 부산교통공사", "ADDR": "부산광역시 북구 낙동대로 1697", "TEL": "051-678-6314", "BASE_DT": "2022-11-30" }, "geometry": { "type": "Point", "coordinates": [ 128.99641272915801, 35.2066707011261 ] } },
{ "type": "Feature", "properties": { "STN_ID": "0315", "STN_KOR": "강서구청", "LINE_ID": "S2603", "LINE_NM": "부산 도시철도 3호선", "STN_EN": "Gangseo-gu Office", "STN_HAN": "江西區廳", "TRSF_TYPE": "일반역", "TRSF_L_ID": null, "TRSF_L_NM": null, "LAT": 35.211219258665402, "LON": 128.98195918828901, "OPERATOR": "부산광역시 부산교통공사", "ADDR": "부산광역시 강서구 낙동북로 485", "TEL": "051-678-6315", "BASE_DT": "2022-11-30" }, "geometry": { "type": "Point", "coordinates": [ 128.981959188289011, 35.211219258665402 ] } },
{ "type": "Feature", "properties": { "STN_ID": "0316", "STN_KOR": "체육공원", "LINE_ID": "S2603", "LINE_NM": "부산 도시철도 3호선", "STN_EN": "Sports Park", "STN_HAN": "體育公園", "TRSF_TYPE": "일반역", "TRSF_L_ID": null, "TRSF_L_NM": null, "LAT": 35.212508041903099, "LON": 128.969459807101, "OPERATOR": "부산광역시 부산교통공사", "ADDR": "부산광역시 강서구 낙동북로 371", "TEL": "051-678-6316", "BASE_DT": "2022-11-30" }, "geometry": { "type": "Point", "coordinates": [ 128.969459807101003, 35.212508041903099 ] } },
{ "type": "Feature", "properties": { "STN_ID": "0317", "STN_KOR": "대저", "LINE_ID": "S2603", "LINE_NM": "부산 도시철도 3호선", "STN_EN": "Daejeo", "STN_HAN": "大渚", "TRSF_TYPE": "환승역", "TRSF_L_ID": "S2603+L26B1", "TRSF_L_NM": "부산 도시철도 3호선+부산김해경전철", "LAT": 35.213361309437502, "LON": 128.961049641838, "OPERATOR": "부산광역시 부산교통공사", "ADDR": "부산광역시 강서구 낙동북로 295", "TEL": "051-678-6317", "BASE_DT": "2022-11-30" }, "geometry": { "type": "Point", "coordinates": [ 128.961049641838002, 35.213361309437502 ] } },
{ "type": "Feature", "properties": { "STN_ID": "0001", "STN_KOR": "사상", "LINE_ID": "L48B1", "LINE_NM": "부산김해경전철", "STN_EN": "Sasang", "STN_HAN": "沙上", "TRSF_TYPE": "환승역", "TRSF_L_ID": "L48B1+S2602", "TRSF_L_NM": "부산김해경전철+부산 도시철도 2호선", "LAT": 35.1623395, "LON": 128.9859556, "OPERATOR": "부산-김해경전철㈜", "ADDR": "부산광역시 사상구 광장로 83", "TEL": "055-310-9601", "BASE_DT": "2022-04-27" }, "geometry": { "type": "Point", "coordinates": [ 128.985955600000011, 35.1623395 ] } },
{ "type": "Feature", "properties": { "STN_ID": "0002", "STN_KOR": "괘법르네시떼", "LINE_ID": "L48B1", "LINE_NM": "부산김해경전철", "STN_EN": "Gwaebeop Renecite", "STN_HAN": "掛法", "TRSF_TYPE": "일반역", "TRSF_L_ID": null, "TRSF_L_NM": null, "LAT": 35.1632595, "LON": 128.9777499, "OPERATOR": "부산-김해경전철㈜", "ADDR": "부산광역시 사상구 광장로 9", "TEL": "055-310-9602", "BASE_DT": "2022-04-27" }, "geometry": { "type": "Point", "coordinates": [ 128.9777499, 35.1632595 ] } },
{ "type": "Feature", "properties": { "STN_ID": "0003", "STN_KOR": "서부산유통지구", "LINE_ID": "L48B1", "LINE_NM": "부산김해경전철", "STN_EN": "Seobusan Yutongjigu", "STN_HAN": "西釜山流通地區", "TRSF_TYPE": "일반역", "TRSF_L_ID": null, "TRSF_L_NM": null, "LAT": 35.1664071, "LON": 128.9549247, "OPERATOR": "부산-김해경전철㈜", "ADDR": "부산광역시 강서구 유통단지1로 57번길 7", "TEL": "055-310-9603", "BASE_DT": "2022-04-27" }, "geometry": { "type": "Point", "coordinates": [ 128.9549247, 35.1664071 ] } },
{ "type": "Feature", "properties": { "STN_ID": "0004", "STN_KOR": "공항", "LINE_ID": "L48B1", "LINE_NM": "부산김해경전철", "STN_EN": "Gimhae International Airport", "STN_HAN": "控抗", "TRSF_TYPE": "일반역", "TRSF_L_ID": null, "TRSF_L_NM": null, "LAT": 35.1719068103559, "LON": 128.94858684619101, "OPERATOR": "부산-김해경전철㈜", "ADDR": "부산광역시 강서구 공항진입로 165", "TEL": "055-310-9604", "BASE_DT": "2022-04-27" }, "geometry": { "type": "Point", "coordinates": [ 128.948586846191006, 35.1719068103559 ] } },
{ "type": "Feature", "properties": { "STN_ID": "0005", "STN_KOR": "덕두", "LINE_ID": "L48B1", "LINE_NM": "부산김해경전철", "STN_EN": "Deokdu", "STN_HAN": "德斗", "TRSF_TYPE": "일반역", "TRSF_L_ID": null, "TRSF_L_NM": null, "LAT": 35.1820005, "LON": 128.9541453, "OPERATOR": "부산-김해경전철㈜", "ADDR": "부산광역시 강서구 경전철로 10", "TEL": "055-310-9605", "BASE_DT": "2022-04-27" }, "geometry": { "type": "Point", "coordinates": [ 128.9541453, 35.1820005 ] } },
{ "type": "Feature", "properties": { "STN_ID": "0006", "STN_KOR": "등구", "LINE_ID": "L48B1", "LINE_NM": "부산김해경전철", "STN_EN": "Deunggu", "STN_HAN": "登龜", "TRSF_TYPE": "일반역", "TRSF_L_ID": null, "TRSF_L_NM": null, "LAT": 35.1961792, "LON": 128.9635687, "OPERATOR": "부산-김해경전철㈜", "ADDR": "부산광역시 강서구 경전철로 194", "TEL": "055-310-9606", "BASE_DT": "2022-04-27" }, "geometry": { "type": "Point", "coordinates": [ 128.9635687, 35.1961792 ] } },
{ "type": "Feature", "properties": { "STN_ID": "0007", "STN_KOR": "대저", "LINE_ID": "L48B1", "LINE_NM": "부산김해경전철", "STN_EN": "Daejeo", "STN_HAN": "大猪", "TRSF_TYPE": "환승역", "TRSF_L_ID": "L48B1+S2603", "TRSF_L_NM": "부산김해경전철+부산 도시철도 3호선", "LAT": 35.2130693, "LON": 128.9605716, "OPERATOR": "부산-김해경전철㈜", "ADDR": "부산광역시 강서구 낙동북로 294", "TEL": "055-310-9607", "BASE_DT": "2022-04-27" }, "geometry": { "type": "Point", "coordinates": [ 128.9605716, 35.2130693 ] } },
{ "type": "Feature", "properties": { "STN_ID": "0008", "STN_KOR": "평강", "LINE_ID": "L48B1", "LINE_NM": "부산김해경전철", "STN_EN": "Pyeonggang", "STN_HAN": "平江", "TRSF_TYPE": "일반역", "TRSF_L_ID": null, "TRSF_L_NM": null, "LAT": 35.21405, "LON": 128.9507765, "OPERATOR": "부산-김해경전철㈜", "ADDR": "부산광역시 강서구 낙동북로 203", "TEL": "055-310-9608", "BASE_DT": "2022-04-27" }, "geometry": { "type": "Point", "coordinates": [ 128.950776499999989, 35.21405 ] } },
{ "type": "Feature", "properties": { "STN_ID": "0009", "STN_KOR": "대사", "LINE_ID": "L48B1", "LINE_NM": "부산김해경전철", "STN_EN": "Daesa", "STN_HAN": "大沙", "TRSF_TYPE": "일반역", "TRSF_L_ID": null, "TRSF_L_NM": null, "LAT": 35.2176724, "LON": 128.9384005, "OPERATOR": "부산-김해경전철㈜", "ADDR": "부산광역시 강서구 낙동북로 82", "TEL": "055-310-9609", "BASE_DT": "2022-04-27" }, "geometry": { "type": "Point", "coordinates": [ 128.9384005, 35.2176724 ] } }
]
}
